[
  {
    "elevation": 548.6,
    "mindate": "2018-05-05",
    "maxdate": "2024-04-02",
    "latitude": 32.37172,
    "name": "AJO 0.4 W, AZ US",
    "datacoverage": 0.1092,
    "id": "GHCND:US1AZPM0331",
    "elevationUnit": "METERS",
    "longitude": -112.86829
  },
  {
    "elevation": 506.3,
    "mindate": "2010-09-28",
    "maxdate": "2014-05-31",
    "latitude": 31.9497,
    "name": "AJO 29 S, AZ US",
    "datacoverage": 1,
    "id": "GHCND:USW00053168",
    "elevationUnit": "METERS",
    "longitude": -112.8013
  },
  {
    "elevation": 435.9,
    "mindate": "1940-02-01",
    "maxdate": "1975-04-30",
    "latitude": 32.45,
    "name": "AJO WELL, AZ US",
    "datacoverage": 0.9978,
    "id": "GHCND:USC00020088",
    "elevationUnit": "METERS",
    "longitude": -112.83333
  },
  {
    "elevation": 533.7,
    "mindate": "1914-05-01",
    "maxdate": "2025-11-18",
    "latitude": 32.3698,
    "name": "AJO, AZ US",
    "datacoverage": 0.9725,
    "id": "GHCND:USC00020080",
    "elevationUnit": "METERS",
    "longitude": -112.8599
  },
  {
    "elevation": 948.2,
    "mindate": "2010-01-01",
    "maxdate": "2019-07-18",
    "latitude": 31.73158,
    "name": "AMADO 1.65 N, AZ US",
    "datacoverage": 0.6231,
    "id": "GHCND:US1AZPM0123",
    "elevationUnit": "METERS",
    "longitude": -111.0668
  },
  {
    "elevation": 1005.8,
    "mindate": "2010-09-27",
    "maxdate": "2014-05-31",
    "latitude": 31.6922,
    "name": "AMADO 23 W, AZ US",
    "datacoverage": 0.9993,
    "id": "GHCND:USW00053006",
    "elevationUnit": "METERS",
    "longitude": -111.4481
  },
  {
    "elevation": 840.9,
    "mindate": "1942-12-01",
    "maxdate": "2025-11-26",
    "latitude": 31.9793,
    "name": "ANVIL RANCH, AZ US",
    "datacoverage": 0.9537,
    "id": "GHCND:USC00020287",
    "elevationUnit": "METERS",
    "longitude": -111.3837
  },
  {
    "elevation": 1112.2,
    "mindate": "1899-10-01",
    "maxdate": "2025-11-24",
    "latitude": 31.57669,
    "name": "ARIVACA, AZ US",
    "datacoverage": 0.5334,
    "id": "GHCND:USC00020380",
    "elevationUnit": "METERS",
    "longitude": -111.31709
  },
  {
    "elevation": 860.1,
    "mindate": "1962-01-01",
    "maxdate": "1973-06-30",
    "latitude": 32.25,
    "name": "ARIZONA SONORA DST M, AZ US",
    "datacoverage": 0.7964,
    "id": "GHCND:USC00020415",
    "elevationUnit": "METERS",
    "longitude": -111.16667
  },
  {
    "elevation": 860.1,
    "mindate": "1943-10-01",
    "maxdate": "1954-08-31",
    "latitude": 32.25,
    "name": "ARIZONA SONORA DST M, AZ US",
    "datacoverage": 0.8047,
    "id": "GHCND:USC00028805",
    "elevationUnit": "METERS",
    "longitude": -111.16667
  },
  {
    "elevation": 835.5,
    "mindate": "2019-09-01",
    "maxdate": "2025-07-16",
    "latitude": 32.390495,
    "name": "AVRA VALLEY 11.2 WSW, AZ US",
    "datacoverage": 0.6048,
    "id": "GHCND:US1AZPM0385",
    "elevationUnit": "METERS",
    "longitude": -111.500911
  },
  {
    "elevation": 1246.3,
    "mindate": "2009-09-04",
    "maxdate": "2013-02-21",
    "latitude": 31.958965,
    "name": "BENSON 10.3 W, AZ US",
    "datacoverage": 0.0892,
    "id": "GHCND:US1AZPM0009",
    "elevationUnit": "METERS",
    "longitude": -110.478447
  },
  {
    "elevation": 1284.4,
    "mindate": "2021-09-16",
    "maxdate": "2023-05-29",
    "latitude": 31.9531,
    "name": "BENSON 9.7 W, AZ US",
    "datacoverage": 0.9887,
    "id": "GHCND:US1AZPM0421",
    "elevationUnit": "METERS",
    "longitude": -110.4549
  },
  {
    "elevation": 1461.5,
    "mindate": "1990-03-26",
    "maxdate": "1998-11-30",
    "latitude": 32.4408,
    "name": "CARGODERA ARIZONA, AZ US",
    "datacoverage": 0.4313,
    "id": "GHCND:USR0000ACAR",
    "elevationUnit": "METERS",
    "longitude": -110.8492
  },
  {
    "elevation": 935.1,
    "mindate": "2017-11-01",
    "maxdate": "2025-11-24",
    "latitude": 32.477619,
    "name": "CATALINA 1.6 S, AZ US",
    "datacoverage": 0.9508,
    "id": "GHCND:US1AZPM0322",
    "elevationUnit": "METERS",
    "longitude": -110.917184
  },
  {
    "elevation": 965,
    "mindate": "2009-09-09",
    "maxdate": "2013-06-12",
    "latitude": 32.4749,
    "name": "CATALINA 2.4 SE, AZ US",
    "datacoverage": 0.9927,
    "id": "GHCND:US1AZPM0088",
    "elevationUnit": "METERS",
    "longitude": -110.894
  },
  {
    "elevation": 1020.5,
    "mindate": "2013-06-13",
    "maxdate": "2025-11-25",
    "latitude": 32.489208,
    "name": "CATALINA 2.5 ESE, AZ US",
    "datacoverage": 0.996,
    "id": "GHCND:US1AZPM0231",
    "elevationUnit": "METERS",
    "longitude": -110.884141
  },
  {
    "elevation": 989.1,
    "mindate": "2009-09-01",
    "maxdate": "2012-01-31",
    "latitude": 32.510559,
    "name": "CATALINA 3.0 NE, AZ US",
    "datacoverage": 0.7203,
    "id": "GHCND:US1AZPM0065",
    "elevationUnit": "METERS",
    "longitude": -110.867601
  },
  {
    "elevation": 825.1,
    "mindate": "2007-04-01",
    "maxdate": "2025-11-27",
    "latitude": 32.4177,
    "name": "CATALINA STATE PARK, AZ US",
    "datacoverage": 0.9519,
    "id": "GHCND:USC00021357",
    "elevationUnit": "METERS",
    "longitude": -110.9302
  },
  {
    "elevation": 1024.1,
    "mindate": "2014-08-01",
    "maxdate": "2015-09-22",
    "latitude": 31.9543876647949,
    "name": "CORONA DE TUCSON 0.5 WSW, AZ US",
    "datacoverage": 0.701,
    "id": "GHCND:US1AZPM0254",
    "elevationUnit": "METERS",
    "longitude": -110.774383544922
  },
  {
    "elevation": 1117.4,
    "mindate": "2021-07-29",
    "maxdate": "2022-02-23",
    "latitude": 31.91593,
    "name": "CORONA DE TUCSON 3.0 SSW, AZ US",
    "datacoverage": 0.9333,
    "id": "GHCND:US1AZPM0425",
    "elevationUnit": "METERS",
    "longitude": -110.78397
  },
  {
    "elevation": 1049.4,
    "mindate": "2009-08-01",
    "maxdate": "2025-11-23",
    "latitude": 31.952529,
    "name": "CORONA DE TUSCON 0.4 SE, AZ US",
    "datacoverage": 0.7834,
    "id": "GHCND:US1AZPM0013",
    "elevationUnit": "METERS",
    "longitude": -110.762995
  },
  {
    "elevation": 691.9,
    "mindate": "1945-03-01",
    "maxdate": "1976-09-30",
    "latitude": 32.33333,
    "name": "CORTARO 3 SW, AZ US",
    "datacoverage": 0.9739,
    "id": "GHCND:USC00022159",
    "elevationUnit": "METERS",
    "longitude": -111.11667
  },
  {
    "elevation": 798.9,
    "mindate": "1956-02-11",
    "maxdate": "1963-12-31",
    "latitude": 32.15,
    "name": "COVERED WELLS 1 E, AZ US",
    "datacoverage": 0.8202,
    "id": "GHCND:USC00022216",
    "elevationUnit": "METERS",
    "longitude": -112.15
  },
  {
    "elevation": 824.2,
    "mindate": "1949-01-01",
    "maxdate": "1970-12-31",
    "latitude": 32.16667,
    "name": "DAVIS MONTHAN AFB, AZ US",
    "datacoverage": 0.9958,
    "id": "GHCND:USW00023109",
    "elevationUnit": "METERS",
    "longitude": -110.88333
  },
  {
    "elevation": 828.8,
    "mindate": "2010-02-01",
    "maxdate": "2019-01-31",
    "latitude": 32.2844,
    "name": "DESTINY RANCH, AZ US",
    "datacoverage": 0.9796,
    "id": "GHCND:USC00022480",
    "elevationUnit": "METERS",
    "longitude": -110.7313
  },
  {
    "elevation": 1495,
    "mindate": "1912-10-01",
    "maxdate": "1970-01-31",
    "latitude": 31.73333,
    "name": "ELGIN 5 N, AZ US",
    "datacoverage": 0.9753,
    "id": "GHCND:USC00022797",
    "elevationUnit": "METERS",
    "longitude": -110.53333
  },
  {
    "elevation": 1417.3,
    "mindate": "1988-12-05",
    "maxdate": "2025-11-27",
    "latitude": 31.7806,
    "name": "EMPIRE ARIZONA, AZ US",
    "datacoverage": 0.9953,
    "id": "GHCND:USR0000AEMP",
    "elevationUnit": "METERS",
    "longitude": -110.6347
  },
  {
    "elevation": 682.1,
    "mindate": "2009-01-01",
    "maxdate": "2025-11-27",
    "latitude": 32.318,
    "name": "FLOWING WELLS 2.1 NW, AZ US",
    "datacoverage": 0.9943,
    "id": "GHCND:US1AZPM0046",
    "elevationUnit": "METERS",
    "longitude": -111.031
  },
  {
    "elevation": 703.5,
    "mindate": "2009-09-01",
    "maxdate": "2010-04-14",
    "latitude": 32.3316444,
    "name": "FLOWING WELLS 3.0 NNW, AZ US",
    "datacoverage": 0.9646,
    "id": "GHCND:US1AZPM0021",
    "elevationUnit": "METERS",
    "longitude": -111.0352539
  },
  {
    "elevation": 713.8,
    "mindate": "2009-09-01",
    "maxdate": "2022-06-23",
    "latitude": 32.28607,
    "name": "FLOWING WELLS 3.1 W, AZ US",
    "datacoverage": 0.9769,
    "id": "GHCND:US1AZPM0063",
    "elevationUnit": "METERS",
    "longitude": -111.06222
  },
  {
    "elevation": 708.1,
    "mindate": "2009-09-01",
    "maxdate": "2025-11-27",
    "latitude": 32.302094,
    "name": "FLOWING WELLS 3.9 W, AZ US",
    "datacoverage": 0.9909,
    "id": "GHCND:US1AZPM0049",
    "elevationUnit": "METERS",
    "longitude": -111.075168
  },
  {
    "elevation": 702.9,
    "mindate": "2009-09-18",
    "maxdate": "2016-04-11",
    "latitude": 32.363263,
    "name": "FLOWING WELLS 5.8 NW, AZ US",
    "datacoverage": 0.6535,
    "id": "GHCND:US1AZPM0057",
    "elevationUnit": "METERS",
    "longitude": -111.064437
  },
  {
    "elevation": 704.4,
    "mindate": "2009-09-01",
    "maxdate": "2025-11-24",
    "latitude": 32.365649,
    "name": "FLOWING WELLS 6.0 NNW, AZ US",
    "datacoverage": 0.3267,
    "id": "GHCND:US1AZPM0070",
    "elevationUnit": "METERS",
    "longitude": -111.065515
  },
  {
    "elevation": 756.2,
    "mindate": "2009-09-01",
    "maxdate": "2025-11-04",
    "latitude": 32.382661,
    "name": "FLOWING WELLS 6.4 NNW, AZ US",
    "datacoverage": 0.9244,
    "id": "GHCND:US1AZPM0047",
    "elevationUnit": "METERS",
    "longitude": -111.037893
  },
  {
    "elevation": 890.9,
    "mindate": "2012-06-27",
    "maxdate": "2017-01-16",
    "latitude": 31.858929,
    "name": "GREEN VALLEY 0.4 NNW, AZ US",
    "datacoverage": 0.1249,
    "id": "GHCND:US1AZPM0212",
    "elevationUnit": "METERS",
    "longitude": -110.996454
  },
  {
    "elevation": 911,
    "mindate": "2018-07-10",
    "maxdate": "2025-09-26",
    "latitude": 31.84976,
    "name": "GREEN VALLEY 0.7 WSW, AZ US",
    "datacoverage": 0.0512,
    "id": "GHCND:US1AZPM0344",
    "elevationUnit": "METERS",
    "longitude": -111.00535
  },
  {
    "elevation": 922,
    "mindate": "2022-03-16",
    "maxdate": "2025-11-26",
    "latitude": 31.856875,
    "name": "GREEN VALLEY 0.9 WNW, AZ US",
    "datacoverage": 0.9689,
    "id": "GHCND:US1AZPM0430",
    "elevationUnit": "METERS",
    "longitude": -111.010227
  },
  {
    "elevation": 865.9,
    "mindate": "2023-06-07",
    "maxdate": "2025-11-26",
    "latitude": 31.861425,
    "name": "GREEN VALLEY 1.0 NE, AZ US",
    "datacoverage": 0.9989,
    "id": "GHCND:US1AZPM0456",
    "elevationUnit": "METERS",
    "longitude": -110.980755
  },
  {
    "elevation": 915.6,
    "mindate": "2017-06-29",
    "maxdate": "2022-03-16",
    "latitude": 31.86725,
    "name": "GREEN VALLEY 1.1 NW, AZ US",
    "datacoverage": 0.8676,
    "id": "GHCND:US1AZPM0311",
    "elevationUnit": "METERS",
    "longitude": -111.00556
  },
  {
    "elevation": 919.9,
    "mindate": "2019-09-24",
    "maxdate": "2025-11-27",
    "latitude": 31.843923,
    "name": "GREEN VALLEY 1.2 SW, AZ US",
    "datacoverage": 0.9703,
    "id": "GHCND:US1AZPM0375",
    "elevationUnit": "METERS",
    "longitude": -111.008993
  },
  {
    "elevation": 902.5,
    "mindate": "2015-10-10",
    "maxdate": "2024-08-27",
    "latitude": 31.868254,
    "name": "GREEN VALLEY 1.2 W, AZ US",
    "datacoverage": 0.8906,
    "id": "GHCND:US1AZPM0269",
    "elevationUnit": "METERS",
    "longitude": -111.009819
  },
  {
    "elevation": 912.9,
    "mindate": "2011-07-15",
    "maxdate": "2016-09-14",
    "latitude": 31.870887,
    "name": "GREEN VALLEY 1.3 NNW, AZ US",
    "datacoverage": 0.5723,
    "id": "GHCND:US1AZPM0211",
    "elevationUnit": "METERS",
    "longitude": -111.004694
  },
  {
    "elevation": 912.6,
    "mindate": "2018-08-07",
    "maxdate": "2023-06-07",
    "latitude": 31.8731,
    "name": "GREEN VALLEY 1.4 NNW, AZ US",
    "datacoverage": 0.7174,
    "id": "GHCND:US1AZPM0347",
    "elevationUnit": "METERS",
    "longitude": -111.00455
  },
  {
    "elevation": 928.7,
    "mindate": "2017-11-21",
    "maxdate": "2025-11-27",
    "latitude": 31.875219,
    "name": "GREEN VALLEY 1.5 NW, AZ US",
    "datacoverage": 0.9911,
    "id": "GHCND:US1AZPM0323",
    "elevationUnit": "METERS",
    "longitude": -111.009087
  },
  {
    "elevation": 875.4,
    "mindate": "2013-08-01",
    "maxdate": "2014-03-02",
    "latitude": 31.878716,
    "name": "GREEN VALLEY 1.7 N, AZ US",
    "datacoverage": 0.5748,
    "id": "GHCND:US1AZPM0238",
    "elevationUnit": "METERS",
    "longitude": -110.989746
  },
  {
    "elevation": 878.7,
    "mindate": "2010-01-01",
    "maxdate": "2010-05-20",
    "latitude": 31.877535,
    "name": "GREEN VALLEY 1.8 NNE, AZ US",
    "datacoverage": 1,
    "id": "GHCND:US1AZPM0089",
    "elevationUnit": "METERS",
    "longitude": -110.99208
  },
  {
    "elevation": 901,
    "mindate": "2023-09-13",
    "maxdate": "2025-11-25",
    "latitude": 31.82958,
    "name": "GREEN VALLEY 1.8 SSW, AZ US",
    "datacoverage": 0.9528,
    "id": "GHCND:US1AZPM0464",
    "elevationUnit": "METERS",
    "longitude": -111.00431
  },
  {
    "elevation": 899.5,
    "mindate": "2020-11-06",
    "maxdate": "2025-11-27",
    "latitude": 31.836144,
    "name": "GREEN VALLEY 1.9 SE, AZ US",
    "datacoverage": 0.9995,
    "id": "GHCND:US1AZPM0408",
    "elevationUnit": "METERS",
    "longitude": -110.97106
  },
  {
    "elevation": 884.5,
    "mindate": "2020-04-16",
    "maxdate": "2025-11-27",
    "latitude": 31.827222,
    "name": "GREEN VALLEY 1.9 SSW, AZ US",
    "datacoverage": 0.9571,
    "id": "GHCND:US1AZPM0392",
    "elevationUnit": "METERS",
    "longitude": -110.998927
  }
]